{
  "meta": {
    "mimetype": "application/x-daoplayer-composition",
    "version": 1,
    "title": "JC-WH_context",
    "description": "waypoints and routes for Jubilee Campus to Wollaton Hall and back"
  },
  "context": {
    "waypoints": [
		{
		"name": "J_CS",
		"lat": 52.953478, 	"lng": -1.187670,
		"description": "Start-Finish - Jubilee Campus CS",
		"origin": true
		},
		{
		"name": "J_BS",
		"lat": 52.954097, 	"lng": -1.188440,
		"description": "Start-Finish - Jubilee Campus CS",
		"origin": true
		},
		{
		"name": "J_CP",
		"lat":52.954441000,  "lng":-1.189575800, 
		"description":"Jubilee campus - right turn towards car park"
		},
		{
		"name": "WR",
		"lat": 52.955247300, "lng": -1.189852100,
		"description": "Wollaton Road - left turn"
		},
		{
		"name": "WR_MR",
		"lat": 52.954769, "lng": -1.192768,
		"description": "Wollaton Road - left turn onto Middleton Road by roundabout"
		},
		{
		"name": "PC_A",
		"lat":52.953765,  "lng":-1.192130,
		"description":"Pedestrian crossing A - Middleton Blvd"
		},
		{
		"name": "HR_L",
		"lat":52.953807,  "lng":-1.192714,
		"description":"Harrow Road - Left turn"
		},
		{
		"name": "HR_HG",
		"lat":52.953536,  "lng":-1.198813,
		"description":"Harrow Road Junction with Eton Road" 
		},
		{
		"name": "HR_DA",
		"lat":52.953463,  "lng":-1.199558,
		"description":"Harrow Road lead up to Digby Ave"
		},
		{
		"name": "DA_GC",
		"lat":52.952476000,  "lng":-1.201302400,
		"description":"Digby Ave - Transition from playing field to Golf course"
		},
		{
		"name": "DA_HW",
		"lat":52.951482200,  "lng":-1.203067300,
		"description":"Digby Ave - approximately half-way - used as a trigger point for the transition  between Stella and The Bad Guys"
		},
		{
		"name": "DA_TR",
		"lat":52.949523,  "lng":-1.206471,
		"description":"Digby Ave - when the path starts to turn - used to calculate the distance between the adjacent waypoints"
		},
		{
		"name": "DA_TH",
		"lat":52.948974000,  "lng":-1.206503200,
		"description":"Digby Ave - Top of hill path intersection"
		},
		{
		"name": "DA_LTA",
		"lat":52.947997900,  "lng":-1.205663700,
		"description":"Digby Ave and Lime Tree Ave intersection"
		},
		{
		"name": "LTA_LT",
		"lat":52.949134,  "lng":-1.208845,
		"description":"Lime Tree Ave - left turn towards Wollaton Hall"
		},
		{
		"name": "LTA_WH",
		"lat":52.949064,  "lng":-1.209281,
		"description":"Lime Tree Ave - Wollaton hall driveway"
		},
		{
		"name": "LTA_WHa",
		"lat":52.94892,  "lng":-1.209558,
		"description":"Lime Tree Ave - Wollaton hall driveway approach point 1"
		},
		{
		"name": "LTA_WHb",
		"lat":52.948382,  "lng":-1.209751,
		"description":"Lime Tree Ave - Wollaton hall driveway approach point 2"
		},
		{
		"name": "WH1",
		"lat":52.948358,  "lng":-1.209481,
		"description":"Wollaton Hall – arrive1"
		},
		{
		"name": "WH3",
		"lat":52.947959,  "lng":-1.210323,
		"description":"Wollaton Hall – arrive"
		},
		{
		"name": "WH_EP",
		"lat":52.948371200,  "lng":-1.209440200,
		"description":"Wollaton Hall - alternative exit path"
		},
		{
		"name": "EP_LTA",
		"lat":52.948178900,  "lng":-1.206393200,
		"description":"Alternative exit path intersection with Lime Tree Ave"
		}
    ],
    
    "routes": [
			{
				"name": "J_CS-J_BS",
				"description": "Scene track0/Start",
				"from": "J_CS",
				"to": "J_BS",
				"nearDistance": "50"
			},
			{
				"name": "J_BS-J_CP",
				"description": "Scene track1/MitaDelMundo stage 1",
				"from": "J_BS",
				"to": "J_CP",
				"nearDistance": "50"
			},
			{
				"name": "J_CP-WR",
				"description": "Scene track1/MitaDelMundo stage 2",
				"from": "J_CP",
				"to": "WR",
				"nearDistance": "50"
			},
			{
				"name": "WR-WR_MR",
				"description": "Scene track2/SisterCities stage 1",
				"from": "WR",
				"to": "WR_MR",
				"nearDistance": "50"
			},
			{
				"name": "WR_MR-PC_A",
				"description": "Scene track2/SisterCities stage 2",
				"from": "WR_MR",
				"to": "PC_A",
				"nearDistance": "50"
			},
			{
				"name": "PC_A-HR_L",
				"description": "Scene track2/SisterCities stage 3",
				"from": "PC_A",
				"to":"HR_L",
				"nearDistance": "50"
			},
			{
				"name": "HR_L-HR_HG",
				"description": "Scene track3/NotAlone stage 1 full volume",
				"from": "HR_L",
				"to":"HR_HG",
				"nearDistance": "50"
			},
			{
				"name": "HR_HG-HR_DA",
				"description": "Scene track3/NotAlone stage 2 long fade",
				"from": "HR_HG",
				"to":"HR_DA",
				"nearDistance": "50"
			},
			{
				"name": "HR_DA-DA_GC",
				"description": "Scene track4/Stella stage 1 - multitrack just vox and piano",
				"from": "HR_DA",
				"to":"DA_GC",
				"nearDistance": "50"
			},
			{
				"name": "DA_GC-DA_HW",
				"description": "Scene track4/Stella stage 2 - multitrack introduce rhythm section",
				"from": "DA_GC",
				"to":"DA_HW",
				"nearDistance": "50"
			},
			{
				"name": "DA_HW-DA_TR",
				"from": "DA_HW",
				"to":"DA_TR",
				"description": "'The Bad Guys' to Digbey Ave and top of hill",
				"nearDistance": "50"
			},
			{
				"name": "DA_TR-DA_TH",
				"from": "DA_TR",
				"to":"DA_TH",
				"description": "'The Bad Guys' to Digbey Ave and top of hill",
				"nearDistance": "50"
			},
			{
				"name": "DA_TH-DA_LTA",
				"description": "Scene track6/WaitingForGA - stage 1",
				"from": "DA_TH",
				"to":"DA_LTA",
				"nearDistance": "50"
			},
			{
				"name": "DA_LTA-LTA_LT",
				"description": "Scene track6/WaitingForGA - stage 2",
				"from": "DA_LTA",
				"to":"LTA_LT",
				"nearDistance": "50"
			},
			{
				"name": "LTA_LT-LTA_WHb",
				"description": "long route for single scene at Wollaton hall",
				"from": "LTA_LT",
				"to":"LTA_WHb",
				"nearDistance": "50"
			},
			
			{
				"name": "WH1-WH3",
				"description": "arrived at Wollaton Hall",
				"from": "WH1",
				"to":"WH3",
				"nearDistance": "50"
			},
			{
				"name": "WH_EP-EP_LTA",
				"description": "Scene fixedPlaylistIn",
				"from": "WH_EP",
				"to": "EP_LTA",
				"nearDistance": "50"
	  	}
    ]
  }
}
